{"data": {"0": {"lat": "29.0150952053666", "long": "-110.270665884018", "title": "Acueducto Independencia, Hermosillo, Sonora", "conflict_label": "Water Management", "source": "https://ejatlas.org/conflict/bosques-agua-y-territorio-en-cheran"}, "1": {"lat": "19.6134839314018", "long": "-100.296249389648", "title": "Angangueo community vs Grupo Mexico, Michoacan", "conflict_label": "Mineral Ores and Building Materials Extraction", "source": "https://ejatlas.org/conflict/bosques-agua-y-territorio-en-cheran"}, "2": {"lat": "19.15", "long": "-98.41", "title": "Arco Poniente, Puebla, Mexico", "conflict_label": "Infrastructure and Built Environment", "source": "https://ejatlas.org/conflict/bosques-agua-y-territorio-en-cheran"}, "3": {"lat": "19.2", "long": "-99.04", "title": "Arco Sur Milpa Alta, Ciudad de Mexico", "conflict_label": "Infrastructure and Built Environment", "source": "https://ejatlas.org/conflict/bosques-agua-y-territorio-en-cheran"}, "4": {"lat": "19.5584", "long": "-98.9191", "title": "Atenco Aeropuerto Internacional, Mexico", "conflict_label": "Infrastructure and Built Environment", "source": "https://ejatlas.org/conflict/bosques-agua-y-territorio-en-cheran"}, "5": {"lat": "19.5530720987796", "long": "-98.9123117923737", "title": "Atenco International Airport, Mexico", "conflict_label": "Infrastructure and Built Environment", "source": "https://ejatlas.org/conflict/bosques-agua-y-territorio-en-cheran"}, "6": {"lat": "20.2257", "long": "-98.7396", "title": "Atotonilco de Tula y la planta de Cemex, Mexico", "conflict_label": "Waste Management", "source": "https://ejatlas.org/conflict/bosques-agua-y-territorio-en-cheran"}, "7": {"lat": "19.689759", "long": "-101.954687", "title": "Bosques, agua y territorio en Cher\u00e1n, Mexico", "conflict_label": "Biomass and Land Conflicts (Forests, Agriculture and Livestock Management)", "source": "https://ejatlas.org/conflict/bosques-agua-y-territorio-en-cheran"}, "8": {"lat": "30.95611111", "long": "-110.3283333", "title": "Cananea mine, Mexico", "conflict_label": "Mineral Ores and Building Materials Extraction", "source": "https://ejatlas.org/conflict/bosques-agua-y-territorio-en-cheran"}, "9": {"lat": "17.29722222", "long": "-96.4325", "title": "Capulalpam de Mendez contra Natividad, Oaxaca", "conflict_label": "Mineral Ores and Building Materials Extraction", "source": "https://ejatlas.org/conflict/bosques-agua-y-territorio-en-cheran"}, "10": {"lat": "18.66", "long": "-99.2", "title": "Casas GEO en el Cerro de La Tortuga, Mexico", "conflict_label": "Infrastructure and Built Environment", "source": "https://ejatlas.org/conflict/bosques-agua-y-territorio-en-cheran"}, "11": {"lat": "22.2236", "long": "-100.8005", "title": "Cerro San Pedro mine, San Luis Potosi, Mexico", "conflict_label": "Mineral Ores and Building Materials Extraction", "source": "https://ejatlas.org/conflict/bosques-agua-y-territorio-en-cheran"}, "12": {"lat": "15.74194444", "long": "-92.28833333", "title": "Chicomuselo contra Blackfire, Chiapas", "conflict_label": "Mineral Ores and Building Materials Extraction", "source": "https://ejatlas.org/conflict/bosques-agua-y-territorio-en-cheran"}, "13": {"lat": "19.45", "long": "-98.97", "title": "Circuito Exterior Mexiquense, Mexico", "conflict_label": "Infrastructure and Built Environment", "source": "https://ejatlas.org/conflict/bosques-agua-y-territorio-en-cheran"}, "14": {"lat": "18.24166667", "long": "-99.66277778", "title": "Cocula, Guerrero, Mexico", "conflict_label": "Mineral Ores and Building Materials Extraction", "source": "https://ejatlas.org/conflict/bosques-agua-y-territorio-en-cheran"}, "15": {"lat": "20.39", "long": "-102.94", "title": "Contaminaci\u00f3n de agua con metales pesados y agrot\u00f3xicos en Poncitl\u00e1n, Jalisco , Mexico", "conflict_label": "Industrial and Utilities conflicts", "source": "https://ejatlas.org/conflict/bosques-agua-y-territorio-en-cheran"}, "16": {"lat": "20.51224861254", "long": "-103.193321228027", "title": "Contamination in El Salto, Mexico", "conflict_label": "Waste Management", "source": "https://ejatlas.org/conflict/bosques-agua-y-territorio-en-cheran"}, "17": {"lat": "16.5565832", "long": "-95.0952004", "title": "Corporate Wind Farms in Ixtepec vs community's inititiative, Oaxaca, Mexico", "conflict_label": "Fossil Fuels and Climate Justice/Energy", "source": "https://ejatlas.org/conflict/bosques-agua-y-territorio-en-cheran"}, "18": {"lat": "16.9078769723895", "long": "-96.5746307373047", "title": "Defence of Magdalena Teititipac against gold mining , Mexico", "conflict_label": "Mineral Ores and Building Materials Extraction", "source": "https://ejatlas.org/conflict/bosques-agua-y-territorio-en-cheran"}, "19": {"lat": "21.5317332385508", "long": "-105.285544395447", "title": "Deforestacion de Manglar San Blas, Nayarit, Mexico", "conflict_label": "Biodiversity conservation conflicts", "source": "https://ejatlas.org/conflict/bosques-agua-y-territorio-en-cheran"}, "20": {"lat": "28.99722222", "long": "-108.5402778", "title": "Dolores (Minefinders) usurpa tierras en Huizopa, Chihuahua", "conflict_label": "Mineral Ores and Building Materials Extraction", "source": "https://ejatlas.org/conflict/bosques-agua-y-territorio-en-cheran"}, "21": {"lat": "26.902476886279807", "long": "-100.107421875", "title": "Earthquakes & conflict linked to fracking, Nuevo Leon, Mexico", "conflict_label": "Fossil Fuels and Climate Justice/Energy", "source": "https://ejatlas.org/conflict/bosques-agua-y-territorio-en-cheran"}, "22": {"lat": "29.843", "long": "-107.4572", "title": "El Barzon vs. MagSilver (Cascabel), Chihuahua, Mexico", "conflict_label": "Mineral Ores and Building Materials Extraction", "source": "https://ejatlas.org/conflict/bosques-agua-y-territorio-en-cheran"}, "23": {"lat": "19.43", "long": "-99.13", "title": "GMO Maize, Mexico", "conflict_label": "Biomass and Land Conflicts (Forests, Agriculture and Livestock Management)", "source": "https://ejatlas.org/conflict/bosques-agua-y-territorio-en-cheran"}, "24": {"lat": "21.02027778", "long": "-101.2525", "title": "Guanajuato, presas contaminadas por minera Great Panther (El Rosario), Mexico", "conflict_label": "Mineral Ores and Building Materials Extraction", "source": "https://ejatlas.org/conflict/bosques-agua-y-territorio-en-cheran"}, "25": {"lat": "18.844238122156533", "long": "-96.92070007324219", "title": "Hidroel\u00e9ctrica El Naranjal, Veracruz,  Mexico", "conflict_label": "Water Management", "source": "https://ejatlas.org/conflict/bosques-agua-y-territorio-en-cheran"}, "26": {"lat": "16.251389", "long": "-97.596389", "title": "Hidroelectrica Paso de la Reyna, Mexico", "conflict_label": "Water Management", "source": "https://ejatlas.org/conflict/bosques-agua-y-territorio-en-cheran"}, "27": {"lat": "20.090039", "long": "-97.797981", "title": "Hidroel\u00e9ctrica Puebla 1, Puebla, Mexico", "conflict_label": "Water Management", "source": "https://ejatlas.org/conflict/bosques-agua-y-territorio-en-cheran"}, "28": {"lat": "20.37889", "long": "-99.651388", "title": "Huichapan, waste incineration in Cemex factory, Hidalgo", "conflict_label": "Industrial and Utilities conflicts", "source": "https://ejatlas.org/conflict/bosques-agua-y-territorio-en-cheran"}, "29": {"lat": "19.722029649071203", "long": "-96.40700340270995", "title": "Laguna Verde, Mexico", "conflict_label": "Nuclear", "source": "https://ejatlas.org/conflict/bosques-agua-y-territorio-en-cheran"}, "30": {"lat": "17.3987221499917", "long": "-99.7774887084961", "title": "La Parota Dam, Mexico", "conflict_label": "Water Management", "source": "https://ejatlas.org/conflict/bosques-agua-y-territorio-en-cheran"}, "31": {"lat": "19.3", "long": "-99.02", "title": "L\u00ednea 12 del Metro en el DF, Mexico", "conflict_label": "Infrastructure and Built Environment", "source": "https://ejatlas.org/conflict/bosques-agua-y-territorio-en-cheran"}, "32": {"lat": "19.332816", "long": "-96.762158", "title": "Los Pescados River hydroelectric project in Veracruz, Mexico", "conflict_label": "Water Management", "source": "https://ejatlas.org/conflict/bosques-agua-y-territorio-en-cheran"}, "33": {"lat": "19.3841904267546", "long": "-100.07755279541", "title": "Lucha por el agua de mujeres ind\u00edgenas Mazahuas, Mexico", "conflict_label": "Water Management", "source": "https://ejatlas.org/conflict/bosques-agua-y-territorio-en-cheran"}, "34": {"lat": "16.277044", "long": "-94.842205", "title": "Mare\u00f1a Renovables in San Dionisio del Mar, Oaxaca, Mexico", "conflict_label": "Fossil Fuels and Climate Justice/Energy", "source": "https://ejatlas.org/conflict/bosques-agua-y-territorio-en-cheran"}, "35": {"lat": "19.753271", "long": "-89.841816", "title": "Mayan beekeepers against Monsanto transgenic soya, Campeche, Mexico", "conflict_label": "Biomass and Land Conflicts (Forests, Agriculture and Livestock Management)", "source": "https://ejatlas.org/conflict/bosques-agua-y-territorio-en-cheran"}, "36": {"lat": "19.740194", "long": "-97.675954", "title": "Mina La Lupe y la Poblaci\u00f3n de Zautla, M\u00e9xico", "conflict_label": "Mineral Ores and Building Materials Extraction", "source": "https://ejatlas.org/conflict/bosques-agua-y-territorio-en-cheran"}, "37": {"lat": "20.77088", "long": "-98.67919", "title": "Minera Autl\u00e1n en Hidalgo, Mexico", "conflict_label": "Mineral Ores and Building Materials Extraction", "source": "https://ejatlas.org/conflict/bosques-agua-y-territorio-en-cheran"}, "38": {"lat": "24.63165", "long": "-101.48756", "title": "Minera Tahuaya in Salaverna del grupo Frisco, Zacatecas, Mexico", "conflict_label": "Mineral Ores and Building Materials Extraction", "source": "https://ejatlas.org/conflict/bosques-agua-y-territorio-en-cheran"}, "39": {"lat": "19.4751", "long": "-97.4849", "title": "Mineria de Oro Frisco, Puebla, M\u00e9xico", "conflict_label": "Mineral Ores and Building Materials Extraction", "source": "https://ejatlas.org/conflict/bosques-agua-y-territorio-en-cheran"}, "40": {"lat": "24.6366", "long": "-101.6963", "title": "Miner\u00eda en Pe\u00f1asquito por Goldcorp, Zacatecas, M\u00e9xico", "conflict_label": "Mineral Ores and Building Materials Extraction", "source": "https://ejatlas.org/conflict/bosques-agua-y-territorio-en-cheran"}, "41": {"lat": "18.78", "long": "-99.18", "title": "Movimiento de los \u201c13 pueblos\u201d contra la Unidad Habitacional \u201cLa Ci\u00e9nega\u201d, Mexico", "conflict_label": "Infrastructure and Built Environment", "source": "https://ejatlas.org/conflict/bosques-agua-y-territorio-en-cheran"}, "42": {"lat": "16.9832", "long": "-100.1623", "title": " Muelle de Pie de la Cuesta y muerte de Fabiola Osorio por defender el manglar, Guerrero, Mexico", "conflict_label": "Biodiversity conservation conflicts", "source": "https://ejatlas.org/conflict/bosques-agua-y-territorio-en-cheran"}, "43": {"lat": "17.882", "long": "-100.7693", "title": "OCESPCC de Guerrero lamenta la muerte de Juventina Villa, Mexico", "conflict_label": "Biomass and Land Conflicts (Forests, Agriculture and Livestock Management)", "source": "https://ejatlas.org/conflict/bosques-agua-y-territorio-en-cheran"}, "44": {"lat": "23.475528238418633", "long": "-103.8819122314453", "title": "Pan American Silver mine in La Colorada, Zacatecas, Mexico", "conflict_label": "Mineral Ores and Building Materials Extraction", "source": "https://ejatlas.org/conflict/bosques-agua-y-territorio-en-cheran"}, "45": {"lat": "23.65", "long": "-110.1", "title": "Paredones Amarillos/Mina Concordia/Los Cardones, M\u00e9xico", "conflict_label": "Mineral Ores and Building Materials Extraction", "source": "https://ejatlas.org/conflict/bosques-agua-y-territorio-en-cheran"}, "46": {"lat": "27.95416667", "long": "-101.4283333", "title": "Pasta de Conchos - mine disaster (Mexico)", "conflict_label": "Mineral Ores and Building Materials Extraction", "source": "https://ejatlas.org/conflict/bosques-agua-y-territorio-en-cheran"}, "47": {"lat": "21.1892935383207", "long": "-102.705774307251", "title": "Presa de El Zapotillo, Jalisco, Mexico", "conflict_label": "Water Management", "source": "https://ejatlas.org/conflict/bosques-agua-y-territorio-en-cheran"}, "48": {"lat": "22.049118", "long": "-104.92884", "title": "Presa Las Cruces Nayarit, Mexico", "conflict_label": "Water Management", "source": "https://ejatlas.org/conflict/bosques-agua-y-territorio-en-cheran"}, "49": {"lat": "20.666517152426678", "long": "-103.34770202636719", "title": "Privatizaci\u00f3n del agua en Guadalajara, Mexico", "conflict_label": "Water Management", "source": "https://ejatlas.org/conflict/bosques-agua-y-territorio-en-cheran"}, "50": {"lat": "16.856994", "long": "-91.503762", "title": "PRODESIS Project in Chiapas, Mexico", "conflict_label": "Biomass and Land Conflicts (Forests, Agriculture and Livestock Management)", "source": "https://ejatlas.org/conflict/bosques-agua-y-territorio-en-cheran"}, "51": {"lat": "28.34306490482549", "long": "-101.8212890625", "title": "Protests and legal action against Fracking, Coahuila, Mexico", "conflict_label": "Fossil Fuels and Climate Justice/Energy", "source": "https://ejatlas.org/conflict/bosques-agua-y-territorio-en-cheran"}, "52": {"lat": "18.626339562152875", "long": "-96.98468685150146", "title": "Proyecto Hidroel\u00e9ctrico Veracruz, Mexico", "conflict_label": "Water Management", "source": "https://ejatlas.org/conflict/bosques-agua-y-territorio-en-cheran"}, "53": {"lat": "19.4151", "long": "-97.4953", "title": "Proyecto Tuligtic, Puebla, Mexico", "conflict_label": "Mineral Ores and Building Materials Extraction", "source": "https://ejatlas.org/conflict/bosques-agua-y-territorio-en-cheran"}, "54": {"lat": "26.09", "long": "-106.96", "title": "Rar\u00e1muri (Tarahumara) fight against deforestation, and Isidro Baldenegro's murder, Chihuahua, Mexico ", "conflict_label": "Biomass and Land Conflicts (Forests, Agriculture and Livestock Management)", "source": "https://ejatlas.org/conflict/bosques-agua-y-territorio-en-cheran"}, "55": {"lat": "16.614374", "long": "-91.333215", "title": "REDD+ pilot, Lacandon Jungle, Chiapas, Mexico", "conflict_label": "Biomass and Land Conflicts (Forests, Agriculture and Livestock Management)", "source": "https://ejatlas.org/conflict/bosques-agua-y-territorio-en-cheran"}, "56": {"lat": "16.445428644905192", "long": "-95.39694786071777", "title": "Represa Benito Ju\u00e1rez, Oaxaca, Mexico", "conflict_label": "Water Management", "source": "https://ejatlas.org/conflict/bosques-agua-y-territorio-en-cheran"}, "57": {"lat": "17.179597", "long": "-92.681501", "title": "Represa Itzant\u00fan, Chiapas, Mexico", "conflict_label": "Water Management", "source": "https://ejatlas.org/conflict/bosques-agua-y-territorio-en-cheran"}, "58": {"lat": "27.473832", "long": "-108.876179", "title": "Represa Los Pilares (o Bicentenario), Sonora, Mexico", "conflict_label": "Water Management", "source": "https://ejatlas.org/conflict/bosques-agua-y-territorio-en-cheran"}, "59": {"lat": "29.38217507514529", "long": "-105.8203125", "title": "Resistance to fracking in Chihuahua, Mexico", "conflict_label": "Fossil Fuels and Climate Justice/Energy", "source": "https://ejatlas.org/conflict/bosques-agua-y-territorio-en-cheran"}, "60": {"lat": "16.68611111", "long": "-96.68333333", "title": "San Jose del Progreso, Oaxaca, Mexico", "conflict_label": "Mineral Ores and Building Materials Extraction", "source": "https://ejatlas.org/conflict/bosques-agua-y-territorio-en-cheran"}, "61": {"lat": "17.1814", "long": "-97.96646118164062", "title": "The violent death of Betty Cari\u00f1o, Oaxaca, Mexico", "conflict_label": "Biomass and Land Conflicts (Forests, Agriculture and Livestock Management)", "source": "https://ejatlas.org/conflict/bosques-agua-y-territorio-en-cheran"}, "62": {"lat": "19.650412", "long": "-99.279114", "title": "Tiradero al cielo abierto \u201cBicentenario\u201d, Mexico", "conflict_label": "Waste Management", "source": "https://ejatlas.org/conflict/bosques-agua-y-territorio-en-cheran"}, "63": {"lat": "19.660233", "long": "-99.257363", "title": "Tiradero al cielo abierto San Jose Huilango, M\u00e9xico", "conflict_label": "Waste Management", "source": "https://ejatlas.org/conflict/bosques-agua-y-territorio-en-cheran"}, "64": {"lat": "18.7881", "long": "-99.2846", "title": "Tiradero Tetlama, Morelos, Mexico", "conflict_label": "Waste Management", "source": "https://ejatlas.org/conflict/bosques-agua-y-territorio-en-cheran"}, "65": {"lat": "29.819", "long": "-110.232", "title": "Toxic spill from mining company belonging to Grupo M\u00e9xico, Sonora, Mexico", "conflict_label": "Mineral Ores and Building Materials Extraction", "source": "https://ejatlas.org/conflict/bosques-agua-y-territorio-en-cheran"}, "66": {"lat": "19.2869", "long": "-99.5149", "title": "UAM Unidad Lerma, expropiation of ejido land, Mexico", "conflict_label": "Infrastructure and Built Environment", "source": "https://ejatlas.org/conflict/bosques-agua-y-territorio-en-cheran"}, "67": {"lat": "20.0176", "long": "-97.5234", "title": "Walmart store in Cuetzalan, Puebla, Mexico", "conflict_label": "Infrastructure and Built Environment", "source": "https://ejatlas.org/conflict/bosques-agua-y-territorio-en-cheran"}, "68": {"lat": "16.4328633461168", "long": "-95.0250446898281", "title": "Wind power plants in Oaxaca, Mexico", "conflict_label": "Fossil Fuels and Climate Justice/Energy", "source": "https://ejatlas.org/conflict/bosques-agua-y-territorio-en-cheran"}, "69": {"lat": "23.6747", "long": "-100.8874", "title": "Wirikuta silver and gold mining, Mexico", "conflict_label": "Mineral Ores and Building Materials Extraction", "source": "https://ejatlas.org/conflict/bosques-agua-y-territorio-en-cheran"}, "70": {"lat": "20.74007", "long": "-99.383909", "title": "Zimapan waste disposal, Hidalgo, Mexico", "conflict_label": "Waste Management", "source": "https://ejatlas.org/conflict/bosques-agua-y-territorio-en-cheran"}}}