{"type": "FeatureCollection", "features": [{"type": "Feature", "geometry": {"type": "Point", "coordinates": [-99.23912123, 19.40695123]}, "properties": {"id": 1011362079889117185, "us id": 22529565, "user name": "flearules", "text": "I'm at Plaza Bosques in Miguel Hidalgo, Distrito Federal https://t.co/P0kLRJohSd", "location": [-99.23912123, 19.40695123]}}, {"type": "Feature", "geometry": {"type": "Point", "coordinates": [-93.1219865, 16.7616942]}, "properties": {"id": 1012410532018745349, "us id": 191147171, "user name": "xtasis91", "text": "@TuxtlaSMAPA 3er Dia y contando... sigue la fuga de aguas negras 10 pte norte 658 Br Colon https://t.co/2v9zjyC4SA", "location": [-93.1219865, 16.7616942]}}, {"type": "Feature", "geometry": {"type": "Point", "coordinates": [-107.45053761, 24.79535009]}, "properties": {"id": 1012434530622410752, "us id": 271513091, "user name": "jerrybobby93", "text": "Vamos por una meta de 200 \u00e1rboles, plantarlos por distintos puntos de la ciudad. \ud83c\udf33\ud83c\udf33\ud83c\udf33 #D\u00edaMundialDel\u00c1rbol #culiac\u00e1n\u2026 https://t.co/eIdaJ1wm6l", "location": [-107.45053761, 24.79535009]}}, {"type": "Feature", "geometry": {"type": "Point", "coordinates": [-103.460398, 25.540505]}, "properties": {"id": 1013569196356194304, "us id": 8091552, "user name": "torreon", "text": "Autoridades reportan cierres de casilla \"en orden\" en ejidos y zonas urbanas de #Viesca #Voto2018", "location": [-103.460398, 25.540505]}}, {"type": "Feature", "geometry": {"type": "Point", "coordinates": [-99.13722678, 19.28385096]}, "properties": {"id": 1013512141406638080, "us id": 297768461, "user name": "Oshkaro", "text": "I'm at Tecnol\u00f3gico de Monterrey Campus Educaci\u00f3n Ejecutiva in Ejidos De Huipulco, Ciudad De M\u00e9xico https://t.co/Ulf53tMFFt", "location": [-99.13722678, 19.28385096]}}]}